match_id,kickoff_jst,stadium_name,lat,lon,weather_fetch_ok,temp_kickoff,precip_kickoff,wind_kickoff,code_kickoff,temp_avg_pm1h,precip_sum_pm1h,wind_max_pm1h,is_rain,is_heavy_rain,is_strong_wind,weather_missing_ratio
j2_2026_05021400_仙台_秋田,2026-05-02 14:00:00,ユアスタ,38.319339256918454,140.88232170743814,1,19.5,0.0,20.2,0,19.266666666666666,0.0,22.9,0,0,1,0.0
j2_2026_05021400_湘南_栃木Ｃ,2026-05-02 14:00:00,レモンＳ,35.34371024492078,139.34175865334066,1,22.0,0.0,9.5,3,21.900000000000002,0.0,12.2,0,0,1,0.0
j2_2026_05021400_磐田_いわき,2026-05-02 14:00:00,ヤマハ,34.72535704219135,137.8756669803011,1,22.1,0.0,26.6,3,21.933333333333334,0.0,26.7,0,0,1,0.0
j2_2026_05021400_鳥栖_宮崎,2026-05-02 14:00:00,駅スタ,33.37180797129067,130.51995871756887,1,22.4,0.0,10.8,3,22.233333333333334,0.0,11.4,0,0,1,0.0
j2_2026_05061400_八戸_湘南,2026-05-06 14:00:00,プラスタ,40.590528022102994,141.4562383184187,1,22.8,0.0,25.4,0,22.666666666666668,0.0,25.4,0,0,1,0.0
j2_2026_05061400_栃木Ｃ_横浜FC,2026-05-06 14:00:00,ＣＦＳ,36.33800250406002,139.64629606132448,1,22.5,0.0,13.1,2,22.333333333333332,0.0,13.8,0,0,1,0.0
j2_2026_05061400_大宮_いわき,2026-05-06 14:00:00,ＮＡＣＫ,35.916401263739736,139.63406626685696,1,22.4,0.0,17.2,2,22.333333333333332,0.0,17.3,0,0,1,0.0
j2_2026_05061400_甲府_磐田,2026-05-06 14:00:00,ＪＩＴス,35.62248446912795,138.59019540732328,1,22.6,0.0,9.8,2,22.433333333333334,0.0,10.3,0,0,1,0.0
j2_2026_05061400_新潟_徳島,2026-05-06 14:00:00,デンカＳ,37.882721193551035,139.059624862698,1,21.5,0.0,8.3,0,21.333333333333332,0.0,11.1,0,0,1,0.0
